{
	"1" : {
		"id":1, 
		"name":"The Commoner",
		"imageThumbnail": "the-commoner.jpg",
		"address": {
			"streetName": "Pleasant Ave.",
			"streetNumber": "85",
			"postalCode": "K2R3R4",
			"city": "Kingston",
			"province": "Ontario",
			"country": "Canada"
		},
		"coordinates": {
			"latitude": "44.263565",
			"longitude": "-76.50336"
		},
		"savings": {
			"fiveYear": "200000" ,
			"lastMonth": "0.4"
		}
	},
	"2": {
		"id":2,
		"name":"The Claremount", 
		"imageThumbnail": "the-claremount.jpg",
		"address": {
			"streetName": "Claremount Street",
			"streetNumber": "1455",
			"postalCode": "K2R3R4",
			"city": "Kingston",
			"province": "Ontario",
			"country": "Canada" 
		},
		"coordinates": {
			"latitude": "44.263560",
			"longitude": "-76.50337"	
		},
		"savings": {
			"fiveYear": "2223290" ,
			"lastMonth": "3.1"
		}
	},
	"3": {
		"id":3, 							
		"name":"Wuthering Heights", 			
		"imageThumbnail": "wuthering-heights.jpg",
		"address": {
			"streetName": "Heathcliff Road",	
			"streetNumber": "369", 			
			"postalCode": "K2R3R4",
			"city": "Kingston",
			"province": "Ontario",
			"country": "Canada"
		},
		"coordinates": {
			"latitude": "44.263561",
			"longitude": "-76.50336"
		},
		"savings": {
			"fiveYear": "730249" ,
			"lastMonth": "-1.9"
		}
	}
}